City_ID,City,Lat,Lng,Max Temp,Humidity,Cloudiness,Wind Speed,Country,Date
0,honningsvag,70.9821,25.9704,26.35,74,6,32.21,NO,1669254796
1,lloydminster,53.2835,-110.0016,28.62,80,0,14.97,CA,1669254796
2,luderitz,-26.6481,15.1594,59.45,80,0,11.7,NA,1669254796
3,busselton,-33.65,115.3333,65.82,55,100,9.69,AU,1669254797
4,tautira,-17.7333,-149.15,76.42,85,100,15.97,PF,1669254797
5,sakakah,29.9697,40.2064,65.77,48,92,5.99,SA,1669254797
6,olafsvik,64.8945,-23.7142,38.41,84,100,39.55,IS,1669254798
7,kahului,20.8947,-156.47,82.42,67,40,19.57,US,1669254798
8,kuching,1.55,110.3333,81.21,91,20,3.44,MY,1669254798
9,tiznit,29.5833,-9.5,65.21,32,92,3.89,MA,1669254799
10,kabinda,-6.1333,24.4833,63.01,96,100,2.33,CD,1669254799
11,rikitea,-23.1203,-134.9692,71.13,87,99,7.78,PF,1669254800
12,ribeira grande,38.5167,-28.7,59.77,77,64,3.0,PT,1669254800
13,atuona,-9.8,-139.0333,77.81,77,12,13.87,PF,1669254801
14,san luis,-33.295,-66.3356,77.41,28,0,9.19,AR,1669254685
15,sawakin,19.1059,37.3321,79.27,72,0,2.89,SD,1669254801
16,port alfred,-33.5906,26.891,66.18,83,47,3.0,ZA,1669254802
17,kapaa,22.0752,-159.319,79.48,74,12,3.0,US,1669254802
18,lusambo,-4.9667,23.45,67.5,99,83,1.45,CD,1669254802
19,bambous virieux,-20.3428,57.7575,75.45,83,40,6.91,MU,1669254803
20,kaitangata,-46.2817,169.8464,58.19,45,87,13.47,NZ,1669254803
21,santa cruz,-17.8,-63.1667,78.26,61,100,3.44,BO,1669254762
22,mataura,-46.1927,168.8643,57.47,39,36,12.39,NZ,1669254803
23,vila franca do campo,37.7167,-25.4333,63.01,81,100,9.86,PT,1669254804
24,bowen,-20.0167,148.2333,82.4,76,46,11.63,AU,1669254804
25,staunton,38.1496,-79.0717,39.29,63,0,3.44,US,1669254606
26,sao filipe,14.8961,-24.4956,77.2,65,100,10.09,CV,1669254805
27,fare,-16.7,-151.0167,79.2,76,100,6.98,PF,1669254805
28,bandarbeyla,9.4942,50.8122,76.35,77,4,10.27,SO,1669254805
29,sarankhola,22.3082,89.7897,67.41,57,18,5.5,BD,1669254806
30,kavieng,-2.5744,150.7967,85.78,59,90,8.95,PG,1669254806
31,qaanaaq,77.484,-69.3632,11.14,89,87,2.3,GL,1669254807
32,ushuaia,-54.8,-68.3,40.66,70,40,13.8,AR,1669254807
33,airai,-8.9266,125.4092,74.1,62,64,1.36,TL,1669254807
34,kalamb,19.05,73.95,66.36,47,23,2.57,IN,1669254808
35,east london,-33.0153,27.9116,67.5,78,77,18.61,ZA,1669254808
36,chuy,-33.6971,-53.4616,59.76,71,5,6.44,UY,1669254809
37,puerto ayora,-0.7393,-90.3518,68.56,97,58,3.0,EC,1669254809
38,kaiyuan,23.6977,103.3037,64.56,74,96,1.14,CN,1669254809
39,neuquen,-38.9516,-68.0591,76.89,36,0,13.8,AR,1669254790
40,rudnichnyy,59.617,52.4703,14.58,84,88,9.31,RU,1669254810
41,yellowknife,62.456,-114.3525,19.92,86,100,5.75,CA,1669254768
42,pisco,-13.7,-76.2167,66.25,88,0,12.66,PE,1669254811
43,ponta delgada,37.7333,-25.6667,63.32,72,40,10.36,PT,1669254811
44,cape town,-33.9258,18.4232,59.88,90,75,10.36,ZA,1669254791
45,werda,-25.2667,23.2833,71.56,54,99,6.46,BW,1669254812
46,vestmannaeyjar,63.4427,-20.2734,43.63,64,100,19.19,IS,1669254872
47,morondava,-20.2833,44.2833,74.79,79,2,6.4,MG,1669254872
48,mar del plata,-38.0023,-57.5575,64.42,73,0,3.44,AR,1669254873
49,victoria,22.2855,114.1577,74.17,91,100,15.99,HK,1669254723
50,massagno,46.0156,8.9453,45.07,80,0,1.14,CH,1669254873
51,saldanha,-33.0117,17.9442,60.85,84,87,7.9,ZA,1669254847
52,jamestown,42.097,-79.2353,40.64,72,0,3.44,US,1669254657
53,port hedland,-20.3167,118.5667,86.05,58,25,9.22,AU,1669254874
54,khorixas,-20.3667,14.9667,72.21,24,99,4.47,NA,1669254874
55,severo-kurilsk,50.6789,156.125,35.38,59,88,11.79,RU,1669254874
56,nipawin,53.3668,-104.0009,32.04,80,0,11.5,CA,1669254875
57,pandharpur,17.6667,75.3333,70.92,53,97,3.6,IN,1669254875
58,dikson,73.5069,80.5464,-21.53,98,93,13.35,RU,1669254875
59,vaini,-21.2,-175.2,84.36,74,20,5.75,TO,1669254876
60,padang,-0.9492,100.3543,75.25,76,97,2.86,ID,1669254778
61,bluff,-46.6,168.3333,57.79,67,29,21.94,NZ,1669254876
62,nanortalik,60.1432,-45.2371,31.06,73,99,9.4,GL,1669254876
63,hobart,-42.8794,147.3294,63.27,62,75,13.8,AU,1669254877
64,saint-philippe,-21.3585,55.7679,72.99,82,38,9.19,RE,1669254877
65,ciudad ojeda,10.1964,-71.3082,76.78,86,24,6.91,VE,1669254877
66,avera,33.194,-82.5271,56.71,62,18,6.35,US,1669254878
67,kodiak,57.79,-152.4072,33.31,86,100,18.41,US,1669254878
68,zhigansk,66.7697,123.3711,-40.54,100,62,2.37,RU,1669254847
69,lagoa,39.05,-27.9833,60.44,67,100,21.65,PT,1669254878
70,nikolskoye,59.7035,30.7861,22.91,90,35,4.85,RU,1669254879
71,mount gambier,-37.8333,140.7667,62.65,51,60,6.8,AU,1669254879
72,pilar,-9.5972,-35.9567,71.53,90,14,3.76,BR,1669254877
73,portland,45.5234,-122.6762,50.2,93,75,4.61,US,1669254216
74,aykhal,66.0,111.5,-15.03,100,100,5.86,RU,1669254879
75,faanui,-16.4833,-151.75,79.61,74,99,5.46,PF,1669254880
76,rockingham,42.9668,-71.0995,38.66,75,5,4.29,US,1669254880
77,comodoro rivadavia,-45.8667,-67.5,64.26,29,0,34.52,AR,1669254814
78,khandbari,27.3747,87.2039,59.94,60,0,1.45,NP,1669254880
79,constitucion,-35.3333,-72.4167,58.62,86,22,15.97,CL,1669254881
80,bredasdorp,-34.5322,20.0403,61.09,78,100,10.63,ZA,1669254881
81,hilo,19.7297,-155.09,78.24,87,36,4.0,US,1669254803
82,ozu,33.5,132.55,68.18,61,100,9.69,JP,1669254882
83,waipawa,-41.4122,175.5153,59.97,57,35,19.42,NZ,1669254882
84,albany,42.6001,-73.9662,38.88,73,10,3.62,US,1669254735
85,hermanus,-34.4187,19.2345,59.81,80,100,15.46,ZA,1669254882
86,balykshi,47.0667,51.8667,33.8,93,0,8.95,KZ,1669254883
87,upernavik,72.7868,-56.1549,22.08,87,100,5.3,GL,1669254628
88,new norfolk,-42.7826,147.0587,62.92,57,100,5.01,AU,1669254883
89,fuxin,42.0156,121.6589,39.0,49,12,5.53,CN,1669254884
90,borzoy,42.8415,45.6275,45.97,59,10,6.29,RU,1669254944
91,arraial do cabo,-22.9661,-42.0278,73.62,91,100,23.82,BR,1669254944
92,ketchikan,55.3422,-131.6461,48.67,93,100,31.07,US,1669254656
93,margate,51.3813,1.3862,46.9,86,94,1.99,GB,1669254945
94,buin,-33.7333,-70.75,77.11,58,10,2.13,CL,1669254945
95,impfondo,1.6381,18.0667,70.61,94,88,2.64,CG,1669254945
96,fairbanks,64.8378,-147.7164,10.74,84,100,0.0,US,1669254487
97,isangel,-19.55,169.2667,87.91,74,34,8.05,VU,1669254946
98,avarua,-21.2078,-159.775,80.65,74,100,17.27,CK,1669254946
99,olinda,-8.0089,-34.8553,80.33,69,20,4.61,BR,1669254946
100,longyearbyen,78.2186,15.6401,26.8,91,100,6.53,SJ,1669254946
101,punta arenas,-53.15,-70.9167,39.31,87,40,19.57,CL,1669254947
102,picton,-34.1833,150.6,77.9,40,1,3.71,AU,1669254947
103,pericos,25.05,-107.7,74.37,52,100,3.76,MX,1669254947
104,riviere-au-renard,48.9957,-64.3971,17.89,66,100,25.59,CA,1669254948
105,geraldton,-28.7667,114.6,73.81,53,40,8.05,AU,1669254913
106,maniitsoq,65.4167,-52.9,28.74,56,92,6.22,GL,1669254948
107,chokurdakh,70.6333,147.9167,-29.97,100,69,4.74,RU,1669254948
108,iranshahr,27.2025,60.6848,60.48,16,96,1.61,IR,1669254949
109,quatre cocos,-20.2078,57.7625,75.31,80,44,9.78,MU,1669254949
110,paignton,50.4357,-3.5679,49.64,85,2,7.0,GB,1669254949
111,kamenka,51.3223,42.7678,33.17,92,100,9.53,RU,1669254950
112,spartanburg,34.9496,-81.9321,51.42,59,0,0.0,US,1669254950
113,caldwell,43.6629,-116.6874,41.61,69,0,4.61,US,1669254462
114,basco,20.4487,121.9702,81.23,81,7,11.63,PH,1669254950
115,cherskiy,68.75,161.3,-29.83,98,99,2.77,RU,1669254951
116,vila velha,-20.3297,-40.2925,75.15,92,40,6.91,BR,1669254756
117,pahrump,36.2083,-115.9839,60.94,18,10,5.01,US,1669254875
118,ashtabula,41.7001,-80.7665,44.24,80,0,0.0,US,1669254737
119,ahuimanu,21.4447,-157.8378,79.75,77,24,1.99,US,1669254951
120,khandyga,62.6667,135.6,-21.82,98,93,1.39,RU,1669254952
121,iqaluit,63.7506,-68.5145,-5.31,70,0,10.36,CA,1669254706
122,bakchar,57.0186,82.0711,-8.28,90,100,7.09,RU,1669254952
123,bac lieu,9.285,105.7244,82.63,79,97,13.18,VN,1669254952
124,north bend,43.4065,-124.2243,56.07,91,0,8.05,US,1669254953
125,huarmey,-10.0681,-78.1522,66.81,84,5,5.82,PE,1669254953
126,berlevag,70.8578,29.0864,22.95,68,21,10.36,NO,1669254953
127,souillac,-20.5167,57.5167,75.58,83,40,6.91,MU,1669254889
128,antofagasta,-23.65,-70.4,64.24,74,19,1.07,CL,1669254954
129,bhuban,20.8833,85.8333,68.29,57,39,2.98,IN,1669254954
130,rolante,-29.6506,-50.5758,67.03,98,16,2.17,BR,1669254954
131,turinsk,58.0458,63.696,7.75,90,100,5.95,RU,1669254955
132,tasiilaq,65.6145,-37.6368,20.84,67,80,8.86,GL,1669254896
133,chingirlau,51.095,54.0814,35.04,95,100,6.24,KZ,1669254955
134,kaabong,3.4836,34.1492,64.18,73,38,3.87,UG,1669254955
135,balasheyka,53.2841,48.0851,32.05,98,100,2.62,RU,1669254956
136,quelimane,-17.8786,36.8883,76.95,94,40,7.0,MZ,1669255016
137,chapais,49.7834,-74.8492,6.58,97,28,3.11,CA,1669255016
138,urucara,-2.5364,-57.76,73.94,96,87,2.37,BR,1669255016
139,port elizabeth,-33.918,25.5701,65.1,80,20,4.61,ZA,1669254913
140,saint-georges,12.0564,-61.7485,78.48,89,20,11.5,GD,1669255017
141,yarmouth,41.7057,-70.2286,46.96,64,6,18.01,US,1669255017
142,tazovskiy,67.4667,78.7,-33.56,99,27,4.92,RU,1669255018
143,borogontsy,62.6683,131.1683,-18.26,97,96,2.17,RU,1669255018
144,dunedin,-45.8742,170.5036,55.8,67,79,11.01,NZ,1669254924
145,tuktoyaktuk,69.4541,-133.0374,10.4,92,100,9.22,CA,1669255018
146,tortoli,39.9256,9.6572,58.77,67,83,7.36,IT,1669255019
147,guaimaro,21.05,-77.35,73.49,91,16,7.49,CU,1669255019
148,alofi,-19.0595,-169.9187,84.09,61,75,11.5,NU,1669254988
149,shimoda,34.6667,138.95,69.1,74,72,6.71,JP,1669255019
150,roma,43.2128,-75.4557,35.67,93,66,3.6,US,1669255020
151,komsomolskiy,40.4272,71.7189,38.12,81,97,6.91,UZ,1669255020
152,cap-aux-meules,47.3821,-61.8597,26.65,93,75,31.07,CA,1669254965
153,schipluiden,51.9774,4.3157,49.01,89,20,16.11,NL,1669255020
154,evensk,61.95,159.2333,2.21,81,100,7.78,RU,1669255021
155,vanimo,-2.6741,141.3028,80.1,84,100,4.16,PG,1669255021
156,svetlaya,46.5389,138.3297,34.92,39,9,3.8,RU,1669255021
157,alice springs,-23.7,133.8833,63.95,94,100,8.05,AU,1669255022
158,maunabo,18.0072,-65.8993,77.88,92,30,12.28,PR,1669255022
159,la rioja,42.25,-2.5,35.38,81,100,5.59,ES,1669255022
160,chone,-0.6833,-80.1,72.14,79,99,7.65,EC,1669255023
161,solano,38.2333,-121.9511,62.55,57,99,1.72,US,1669255023
162,feicheng,35.2606,117.9675,57.88,60,0,6.17,CN,1669255024
163,nyurba,63.2842,118.3319,-31.38,100,100,1.59,RU,1669255024
164,stornoway,58.2093,-6.3865,47.03,86,75,23.02,GB,1669255025
165,imeni stepana razina,54.8932,44.2963,26.29,95,100,6.78,RU,1669255025
166,vostok,46.4856,135.8833,23.36,60,5,2.73,RU,1669255026
167,mahebourg,-20.4081,57.7,75.49,83,40,6.91,MU,1669255026
168,pauini,-7.7136,-66.9764,71.64,89,91,0.81,BR,1669255026
169,woodburn,45.1437,-122.8554,47.91,80,100,1.01,US,1669255027
170,rockport,28.0206,-97.0544,66.24,89,40,10.36,US,1669255027
171,nelson bay,-32.7167,152.15,73.45,58,1,11.01,AU,1669255027
172,castro,-24.7911,-50.0119,62.29,89,7,1.81,BR,1669255028
173,khatanga,71.9667,102.5,-40.81,100,57,2.86,RU,1669255028
174,klaksvik,62.2266,-6.589,47.32,90,100,35.95,FO,1669255028
175,tavda,58.0425,65.2726,0.43,95,95,4.05,RU,1669255029
176,broken hill,-31.95,141.4333,75.54,26,50,2.93,AU,1669255029
177,hasaki,35.7333,140.8333,66.29,58,2,23.87,JP,1669255029
178,saskylakh,71.9167,114.0833,-35.79,100,96,2.35,RU,1669255030
179,kem,64.9555,34.5793,21.76,86,21,4.43,RU,1669255030
180,yumen,40.2833,97.2,37.56,30,100,19.17,CN,1669255031
181,thongwa,16.7619,96.5278,80.76,66,30,8.5,MM,1669255031
182,kaka,37.3482,59.6143,55.81,28,96,2.68,TM,1669255031
183,norman wells,65.282,-126.8329,8.64,92,40,3.44,CA,1669255092
184,san patricio,28.017,-97.5169,66.92,96,95,8.32,US,1669255092
185,talnakh,69.4865,88.3972,-30.37,96,12,1.63,RU,1669255092
186,clyde river,70.4692,-68.5914,-3.77,65,100,2.3,CA,1669255093
187,ampanihy,-24.7,44.75,71.98,80,1,6.04,MG,1669255093
188,bundaberg,-24.85,152.35,80.22,40,98,3.0,AU,1669255093
189,los llanos de aridane,28.6585,-17.9182,65.95,87,100,8.05,ES,1669254978
190,lisala,2.15,21.5167,68.13,96,11,1.77,CD,1669255094
191,bethel,41.3712,-73.414,42.94,70,6,4.05,US,1669254877
192,fort nelson,58.8053,-122.7002,28.94,73,100,2.3,CA,1669255094
193,leningradskiy,69.3833,178.4167,-6.97,97,100,2.24,RU,1669255095
194,sioux lookout,50.1001,-91.917,32.07,86,75,8.05,CA,1669255095
195,acapulco,16.8634,-99.8901,78.49,83,97,4.21,MX,1669255013
196,zhezkazgan,47.8043,67.7144,31.98,93,100,13.42,KZ,1669255095
197,poum,-20.2333,164.0167,79.3,78,55,13.29,NC,1669255096
198,ponta do sol,32.6667,-17.1,67.01,68,33,5.61,PT,1669255001
199,chardara,41.2547,67.9692,53.71,57,100,9.8,KZ,1669255096
200,viedma,-40.8135,-62.9967,70.27,42,3,16.06,AR,1669255096
201,baykit,61.67,96.37,-10.17,98,100,2.46,RU,1669255097
202,kirakira,-10.4544,161.9205,84.85,72,41,7.58,SB,1669255097
203,yar-sale,66.8333,70.8333,-14.55,100,98,3.94,RU,1669255097
204,anadyr,64.75,177.4833,23.5,92,100,46.98,RU,1669255098
205,muncar,-8.4333,114.3333,82.29,78,99,3.47,ID,1669255098
206,pacific grove,36.6177,-121.9166,59.54,80,95,11.01,US,1669254901
207,cleethorpes,53.5605,-0.0323,44.6,81,20,17.27,GB,1669255098
208,labuhan,-6.8844,112.2051,83.16,73,100,5.97,ID,1669255099
209,kudahuvadhoo,2.6708,72.8944,81.48,74,98,14.72,MV,1669255099
210,tucurui,-3.7661,-49.6725,74.3,92,59,3.49,BR,1669255100
211,bani,18.2833,-70.3333,74.64,81,1,8.9,DO,1669255100
212,canutama,-6.5339,-64.3831,71.17,98,55,0.56,BR,1669255100
213,ranong,9.9658,98.6348,76.93,85,100,3.02,TH,1669255101
214,cuamba,-14.8031,36.5372,69.26,90,97,3.94,MZ,1669255101
215,beringovskiy,63.05,179.3167,27.37,89,98,9.53,RU,1669255101
216,tsaratanana,-16.7833,47.65,71.33,74,100,7.54,MG,1669255102
217,belgrade,44.804,20.4651,40.66,92,75,6.91,RS,1669255082
218,thompson,55.7435,-97.8558,21.36,100,40,8.05,CA,1669254961
219,fortuna,40.5982,-124.1573,49.98,89,0,0.0,US,1669255102
220,hami,42.8,93.45,34.02,51,99,5.14,CN,1669255103
221,cidreira,-30.1811,-50.2056,65.43,76,7,4.41,BR,1669255103
222,siocon,7.7061,122.1353,85.78,65,87,2.24,PH,1669255103
223,teguldet,57.3064,88.1667,-8.41,94,100,8.7,RU,1669255104
224,manggar,-2.8833,108.2667,83.53,72,100,2.84,ID,1669255104
225,show low,34.2542,-110.0298,41.29,32,0,9.22,US,1669255104
226,ancud,-41.8697,-73.8203,50.11,90,54,5.26,CL,1669255105
227,baymak,52.5933,58.3225,18.37,96,100,7.56,RU,1669255105
228,kapoeta,4.7717,33.5903,77.16,64,87,3.0,SS,1669255105
229,subtanjalla,-14.0189,-75.7581,67.66,70,0,2.59,PE,1669254816
230,santa marta,11.2408,-74.199,78.89,83,75,4.0,CO,1669254968
231,georgetown,5.4112,100.3354,81.95,94,40,5.01,MY,1669254900
232,alingsas,57.9303,12.5335,39.02,91,99,8.99,SE,1669255166
233,necochea,-38.5473,-58.7368,58.59,76,0,3.96,AR,1669255166
234,yulara,-25.2406,130.9889,77.32,50,60,8.84,AU,1669254964
235,northam,51.0333,-4.2167,50.25,76,6,22.7,GB,1669255167
236,tabuk,17.4189,121.4443,83.46,71,90,7.18,PH,1669255167
237,mitsamiouli,-11.3847,43.2844,78.6,76,1,12.64,KM,1669255167
238,inirida,3.8653,-67.9239,73.02,98,100,2.13,CO,1669255168
239,bengkulu,-3.8004,102.2655,78.24,80,100,3.09,ID,1669255168
240,dongsheng,39.8161,109.9776,40.89,44,60,14.2,CN,1669255168
241,provideniya,64.3833,-173.3,19.51,73,100,8.99,RU,1669255168
242,charleville,-26.4,146.25,84.9,16,100,8.61,AU,1669255169
243,belaya gora,68.5333,146.4167,-30.96,100,100,2.26,RU,1669255059
244,ingham,42.6,-84.3833,44.02,84,0,0.0,US,1669255169
245,margarita,9.3314,-79.8889,77.95,100,30,0.6,PA,1669255169
246,sanford,28.8006,-81.2731,70.18,96,96,1.99,US,1669255170
247,schonebeck,52.0167,11.75,37.76,93,94,5.01,DE,1669255170
248,de aar,-30.6497,24.0123,64.8,32,0,5.19,ZA,1669255170
249,yuzhno-kurilsk,44.0306,145.8556,44.47,74,100,11.56,RU,1669255170
250,kadoma,34.7333,135.5833,62.65,61,75,10.36,JP,1669255171
251,damphu,27.0721,90.1096,61.16,58,15,3.09,BT,1669255171
252,punta alta,-38.8759,-62.0736,73.54,49,0,13.2,AR,1669255153
253,taoudenni,22.6783,-3.9836,70.66,9,100,10.25,ML,1669255171
254,kavaratti,10.5669,72.642,79.7,76,83,8.72,IN,1669255172
255,codrington,-38.2667,141.9667,58.3,68,99,8.21,AU,1669255172
256,coquimbo,-29.9533,-71.3436,58.73,88,20,5.75,CL,1669255172
257,methoni,36.8197,21.7049,55.22,72,9,10.31,GR,1669255173
258,havelock,34.8791,-76.9013,55.94,73,0,1.99,US,1669255173
259,katangli,51.7102,143.2326,19.47,59,2,9.35,RU,1669255173
260,torbay,47.6666,-52.7314,33.76,90,100,16.11,CA,1669254981
261,lacarak,45.0022,19.5686,42.94,81,100,11.97,RS,1669255174
262,dasuya,31.8183,75.6597,55.51,44,91,1.41,IN,1669255174
263,onega,63.9061,38.1404,13.19,95,23,5.12,RU,1669255174
264,bereznik,62.8551,42.7072,9.82,95,7,4.29,RU,1669255174
265,harper,4.375,-7.7169,77.92,85,10,6.04,LR,1669255175
266,hoshiarpur,31.5322,75.9172,55.26,45,94,1.9,IN,1669255175
267,fevik,58.3794,8.6766,46.17,91,100,19.33,NO,1669255175
268,ixtapa,20.7,-105.2,76.23,80,100,1.79,MX,1669255175
269,bonthe,7.5264,-12.505,77.59,80,100,3.2,SL,1669255111
270,nampula,-15.1165,39.2666,73.35,88,75,8.05,MZ,1669255176
271,thai binh,20.45,106.3333,76.95,85,100,9.51,VN,1669255176
272,nemuro,43.3236,145.575,46.81,68,100,17.45,JP,1669255176
273,richards bay,-28.783,32.0377,71.89,81,0,14.92,ZA,1669255177
274,khvastovichi,53.4694,35.0941,17.1,98,50,3.4,RU,1669255237
275,oeiras,-7.0253,-42.1311,79.9,52,71,3.91,BR,1669255038
276,lomovka,53.9194,58.3672,15.4,96,100,4.16,RU,1669255238
277,menongue,-14.6585,17.691,62.4,91,100,3.65,AO,1669255238
278,wau,7.7029,27.9953,76.93,53,11,4.83,SS,1669255238
279,okhotsk,59.3833,143.3,-0.2,79,100,18.25,RU,1669255239
280,deputatskiy,69.3,139.9,-31.31,99,92,3.13,RU,1669255239
281,kendari,-3.945,122.4989,87.53,65,97,2.24,ID,1669255239
282,mount isa,-20.7333,139.5,91.17,18,85,9.22,AU,1669255240
283,sulmona,42.0479,13.9291,48.42,77,14,4.7,IT,1669255240
284,mildura,-34.2,142.15,73.08,52,88,8.81,AU,1669255146
285,vardo,70.3705,31.1107,21.18,86,44,21.85,NO,1669255241
286,usinsk,65.9939,57.5281,-1.01,100,93,6.6,RU,1669255241
287,batagay-alyta,67.8006,130.4114,-29.49,98,54,3.09,RU,1669255241
288,lufilufi,-13.8745,-171.5986,81.79,77,20,14.25,WS,1669255241
289,paka,4.6374,103.4368,84.38,77,97,2.04,MY,1669255242
290,nanakuli,21.3906,-158.1547,79.99,64,100,5.75,US,1669255242
291,lillooet,50.6856,-121.942,38.41,94,100,5.37,CA,1669255243
292,takoradi,4.8845,-1.7554,78.73,83,93,7.16,GH,1669255243
293,eureka,40.8021,-124.1637,49.39,92,95,4.72,US,1669255138
294,tambun,-6.2641,107.0712,90.03,74,40,4.61,ID,1669255243
295,nouadhibou,20.931,-17.0347,67.55,75,0,12.62,MR,1669255244
296,ust-nera,64.5667,143.2,-11.6,97,100,2.98,RU,1669255244
297,itarema,-2.9248,-39.9167,78.67,75,35,15.1,BR,1669255245
298,lebu,-37.6167,-73.65,57.13,92,29,15.5,CL,1669255159
299,najran,17.4924,44.1277,54.25,54,0,1.72,SA,1669255091
300,kolondieba,11.0882,-6.8926,71.29,31,12,2.51,ML,1669255246
301,saint george,37.1041,-113.5841,52.25,33,59,1.99,US,1669255143
302,ilulissat,69.2167,-51.1,4.21,81,13,4.9,GL,1669255048
303,zalantun,48.0,122.7167,15.46,62,100,3.4,CN,1669255247
304,puerto leguizamo,-0.1934,-74.7819,71.78,96,65,1.86,CO,1669255248
305,la sarre,48.8002,-79.1996,25.75,96,100,6.89,CA,1669255203
306,uva,56.9908,52.1852,21.63,95,100,9.51,RU,1669255248
307,avrille,47.5,-0.5833,49.77,91,3,14.12,FR,1669255249
308,teguise,29.0605,-13.564,66.42,78,75,9.22,ES,1669255249
309,cabo san lucas,22.8909,-109.9124,75.51,64,59,5.5,MX,1669254920
310,tottori,35.5,134.2333,57.9,72,100,11.34,JP,1669255250
311,sibu,2.3,111.8167,76.64,93,100,3.49,MY,1669255250
312,lorengau,-2.0226,147.2712,86.31,63,97,10.4,PG,1669255250
313,henties bay,-22.116,14.2845,60.48,83,10,6.08,NA,1669255251
314,kazachinskoye,57.6953,93.2761,-9.33,89,100,9.17,RU,1669255251
315,simao,22.7886,100.9748,66.49,57,96,0.43,CN,1669255252
316,palmer,42.1584,-72.3287,37.99,80,5,3.27,US,1669255252
317,svetlyy,54.675,20.1347,26.65,92,100,7.78,RU,1669255252
318,muswellbrook,-32.2667,150.9,78.53,35,0,6.64,AU,1669255247
319,beidao,34.5686,105.8933,45.9,79,99,5.12,CN,1669255253
320,lasa,46.6166,10.7002,29.03,92,28,7.07,IT,1669255253
321,warrnambool,-38.3833,142.4833,57.16,69,89,10.92,AU,1669255254
322,waitati,-45.75,170.5667,55.8,67,61,13.47,NZ,1669255314
323,cabatuan,10.8794,122.486,84.2,75,93,11.1,PH,1669255314
324,iskateley,67.6803,53.1512,17.92,97,79,6.17,RU,1669255315
325,narsaq,60.9167,-46.05,43.02,67,93,11.79,GL,1669255315
326,damghan,36.1683,54.348,46.38,35,100,1.61,IR,1669255316
327,pomarla,48.0667,26.3167,37.27,93,100,4.52,RO,1669255316
328,smithers,54.7804,-127.1743,35.44,99,100,1.9,CA,1669255316
329,esperance,-33.8667,121.9,74.46,57,59,16.67,AU,1669255317
330,barrow,71.2906,-156.7887,8.62,78,100,21.85,US,1669255317
331,carnarvon,-24.8667,113.6333,75.16,54,0,9.19,AU,1669255317
332,sao joao da barra,-21.6403,-41.0511,74.5,88,100,14.67,BR,1669255318
333,ertil,51.8406,40.8056,32.07,93,83,7.05,RU,1669255318
334,srednekolymsk,67.45,153.6833,-25.08,99,100,3.96,RU,1669255318
335,yining,29.0361,114.5636,64.38,67,67,1.43,CN,1669255319
336,venado tuerto,-33.7456,-61.9688,74.77,31,1,2.59,AR,1669255319
337,taunggyi,20.7833,97.0333,65.1,69,74,1.28,MM,1669255319
338,teknaf,20.8624,92.3058,71.11,63,82,6.78,BD,1669255320
339,janakkala,60.9,24.6,20.8,88,100,6.06,FI,1669255320
340,san ramon,37.7799,-121.978,60.85,58,82,2.44,US,1669255268
341,brae,60.3964,-1.353,47.66,87,100,22.3,GB,1669255095
342,kruisfontein,-34.0033,24.7314,62.89,84,79,5.08,ZA,1669255320
343,dauriya,49.9333,116.8667,9.91,87,100,10.6,RU,1669255321
344,belmonte,-15.8631,-38.8828,74.37,88,95,5.57,BR,1669255140
345,ulladulla,-35.35,150.4667,66.69,62,20,9.57,AU,1669255321
346,tiksi,71.6872,128.8694,-27.11,100,100,3.62,RU,1669255321
347,clarksville,36.5298,-87.3595,51.33,47,57,5.08,US,1669255251
348,tanhacu,-14.0214,-41.2481,70.7,82,100,4.92,BR,1669255322
349,arawa,-6.2132,155.5367,83.28,74,100,3.36,PG,1669255322
350,waingapu,-9.6567,120.2641,87.28,62,100,7.23,ID,1669255322
351,hithadhoo,-0.6,73.0833,81.73,74,25,13.49,MV,1669255323
352,prado,-17.3411,-39.2208,74.12,89,100,6.71,BR,1669255233
353,songea,-10.6833,35.65,62.87,95,38,3.6,TZ,1669255324
354,kisiwani,-4.1333,37.95,67.32,95,87,2.37,TZ,1669255324
355,pohrebyshche,49.4864,29.2636,34.72,99,100,12.37,UA,1669255325
356,kasongo-lunda,-6.4667,16.8167,67.44,98,91,0.36,CD,1669255325
357,bhag,29.0415,67.8239,62.94,18,14,2.08,PK,1669255326
358,tessalit,20.1986,1.0114,68.13,16,99,9.48,ML,1669255326
359,mbini,1.574,9.6134,77.38,88,35,2.57,GQ,1669255327
360,primorsk,46.7348,36.3443,45.68,88,100,19.51,UA,1669255327
361,otane,-39.8833,176.6333,62.01,46,84,12.3,NZ,1669255327
362,lompoc,34.6391,-120.4579,63.59,87,59,1.01,US,1669255282
363,santiago del estero,-27.7951,-64.2615,74.89,40,0,7.52,AR,1669255328
364,lere,10.387,8.5726,62.49,23,2,4.81,NG,1669255328
365,cabedelo,-6.9811,-34.8339,78.01,77,80,8.16,BR,1669255329
366,babu,24.4167,111.5167,62.13,96,100,2.84,CN,1669255329
367,alta floresta,-9.8756,-56.0861,70.66,97,100,2.89,BR,1669255330
368,pochutla,15.7432,-96.4661,76.82,85,95,3.51,MX,1669255330
369,pueblo nuevo,23.3833,-105.3833,50.67,91,76,3.22,MX,1669255331
370,half moon bay,37.4636,-122.4286,62.35,68,20,9.22,US,1669255331
371,meiningen,50.5679,10.4152,42.58,94,100,5.41,DE,1669255391
372,katsuura,35.1333,140.3,63.54,58,6,16.06,JP,1669255392
373,aklavik,68.2191,-135.0107,5.45,97,97,5.01,CA,1669255392
374,rurrenabaque,-14.4413,-67.5278,73.9,77,93,2.01,BO,1669255392
375,isla mujeres,21.2311,-86.731,77.16,75,9,8.7,MX,1669255393
376,cacheu,12.2706,-16.1658,71.28,46,85,4.16,GW,1669255393
377,soe,-9.8607,124.284,81.23,57,100,1.74,ID,1669255393
378,jumla,29.2747,82.1838,44.24,24,0,4.65,NP,1669255394
379,ca mau,9.1769,105.15,83.61,77,100,9.91,VN,1669255394
380,guerrero negro,27.9769,-114.0611,62.71,67,0,10.63,MX,1669255394
381,touros,-5.1989,-35.4608,78.15,75,10,11.23,BR,1669255395
382,arlit,18.7369,7.3853,66.63,15,99,5.82,NE,1669255395
383,coro,11.4045,-69.6734,77.4,86,35,9.17,VE,1669255395
384,tsumeb,-19.2333,17.7167,69.8,73,100,4.23,NA,1669255396
385,jogindarnagar,31.9833,76.7667,56.68,22,5,7.47,IN,1669255396
386,saint anthony,45.0205,-93.218,40.6,80,100,5.75,US,1669255247
387,haftoni,38.7632,48.7622,55.13,87,5,3.67,AZ,1669255397
388,derzhavinsk,51.1,66.3167,21.36,91,100,12.8,KZ,1669255397
389,norden,53.6,7.2,45.0,97,89,1.01,DE,1669255398
390,mikun,62.3547,50.0771,3.83,96,27,5.14,RU,1669255398
391,emilio carranza,19.9711,-96.6114,71.33,87,99,4.41,MX,1669255399
392,praia da vitoria,38.7333,-27.0667,58.75,92,63,16.55,PT,1669255399
393,fuling,29.7022,107.3919,62.78,80,92,1.1,CN,1669255399
394,fereydun kenar,36.6864,52.5225,60.13,84,59,3.47,IR,1669255400
395,drayton valley,53.2168,-114.9854,29.95,87,100,5.37,CA,1669255205
396,nanning,22.8167,108.3167,66.72,93,100,3.87,CN,1669255207
397,nortelandia,-14.4547,-56.8028,75.18,75,100,1.97,BR,1669255400
398,safford,32.834,-109.7076,59.11,28,0,10.36,US,1669255401
399,celestun,20.8667,-90.4,78.21,82,99,6.33,MX,1669255401
400,petropavlovsk-kamchatskiy,53.0452,158.6483,32.59,51,75,8.95,RU,1669255402
401,bathsheba,13.2167,-59.5167,79.11,82,100,19.24,BB,1669255403
402,anzio,41.4853,12.6179,57.0,82,13,7.72,IT,1669255403
403,atar,20.5169,-13.0499,66.13,14,0,7.9,MR,1669255403
404,angoche,-16.2325,39.9086,77.63,81,4,7.56,MZ,1669255404
405,cayenne,4.9333,-52.3333,75.24,94,40,0.0,GF,1669255206
406,altamont,42.2068,-121.7372,38.79,81,54,1.59,US,1669255220
407,tuatapere,-46.1333,167.6833,52.79,73,70,16.08,NZ,1669255404
408,johnson city,36.3134,-82.3535,53.37,61,0,0.0,US,1669255188
409,ilebo,-4.3167,20.5833,68.22,95,86,1.48,CD,1669255405
410,hot springs,34.5037,-93.0552,52.2,87,100,4.61,US,1669254773
411,flinders,-34.5833,150.8552,76.17,57,0,4.0,AU,1669255405
412,butaritari,3.0707,172.7902,80.83,70,12,4.09,KI,1669255406
413,cockburn town,21.4612,-71.1419,81.61,77,16,18.19,TC,1669255406
414,columbus,39.9612,-82.9988,41.99,64,0,0.0,US,1669254931
415,lulea,65.5842,22.1547,24.87,100,100,3.44,SE,1669255407
416,san quintin,30.4833,-115.95,60.03,66,0,7.81,MX,1669255407
417,kupang,-10.1667,123.5833,88.38,66,20,4.61,ID,1669255468
418,biharamulo,-2.6319,31.3089,59.81,95,76,0.67,TZ,1669255468
419,sahuaripa,29.05,-109.2333,58.95,31,8,4.12,MX,1669255232
420,ust-tsilma,65.441,52.1498,-3.17,100,96,2.37,RU,1669255469
421,rosendal,59.9867,6.0135,38.91,67,22,14.23,NO,1669255469
422,asfi,32.2994,-9.2372,62.85,82,0,10.07,MA,1669255469
423,husavik,66.0449,-17.3389,39.4,98,100,9.08,IS,1669255470
424,agucadoura,41.4318,-8.7804,57.76,83,100,10.65,PT,1669255470
425,uruguaiana,-29.7547,-57.0883,63.66,45,0,6.53,BR,1669255363
426,solyanka,46.3889,48.0176,37.35,87,0,6.71,RU,1669255470
427,buchanan,5.8808,-10.0467,77.59,86,100,5.41,LR,1669255470
428,novoagansk,61.9449,76.6625,2.48,96,99,6.58,RU,1669255471
429,punta de bombon,-17.1717,-71.7931,67.51,84,100,5.37,PE,1669255471
430,suntar,62.1444,117.6319,-31.38,99,82,0.85,RU,1669255471
431,sao jose da coroa grande,-8.8978,-35.1478,76.19,79,60,5.37,BR,1669255472
432,zakamensk,50.3741,103.2863,14.59,93,100,1.34,RU,1669255472
433,glendive,47.1053,-104.7125,36.75,94,100,20.71,US,1669255231
434,dhidhdhoo,6.8833,73.1,81.21,67,100,14.0,MV,1669255472
435,esil,51.9556,66.4042,18.37,87,100,13.85,KZ,1669255473
436,sorland,67.667,12.6934,39.06,58,100,16.2,NO,1669255473
437,beloha,-25.1667,45.05,71.49,80,1,8.66,MG,1669255473
438,swan hill,-35.3378,143.5544,71.53,40,2,8.32,AU,1669255306
439,bajil,15.0584,43.2851,76.06,74,0,2.24,YE,1669255474
440,chumikan,54.7183,135.315,6.46,73,3,21.05,RU,1669255474
441,jinchang,38.4953,102.1739,41.43,25,3,3.85,CN,1669255474
442,alenquer,-1.9417,-54.7383,78.24,79,91,1.97,BR,1669255301
443,grindavik,63.8424,-22.4338,41.47,70,0,28.77,IS,1669255475
444,middelkerke,51.1558,2.8418,47.44,91,75,13.8,BE,1669255475
445,falkenberg,56.9055,12.4912,41.14,91,99,15.68,SE,1669255476
446,minbu,20.1833,94.8833,76.23,61,72,7.27,MM,1669255476
447,hobyo,5.3505,48.5268,78.22,74,3,9.35,SO,1669255477
448,naze,28.3667,129.4833,68.31,62,59,8.93,JP,1669255477
449,halifax,44.6453,-63.5724,31.44,64,41,10.0,CA,1669255337
450,kutum,14.2,24.6667,61.81,33,9,7.23,SD,1669255478
451,falam,22.9167,93.6833,61.63,66,1,1.39,MM,1669255478
452,cheremukhovo,60.3484,59.9851,-7.49,99,6,1.63,RU,1669255478
453,lavrentiya,65.5833,-171.0,15.37,78,100,7.43,RU,1669255479
454,japura,-0.3167,102.35,84.16,65,95,2.8,ID,1669255479
455,urengoy,65.9667,78.3667,-31.16,98,16,5.75,RU,1669255479
456,port augusta,-32.5,137.7667,80.33,24,77,3.36,AU,1669255407
457,roald,62.5833,6.1333,45.52,53,100,17.27,NO,1669255480
458,pevek,69.7008,170.3133,-25.42,96,100,1.01,RU,1669255480
459,sesheke,-17.4759,24.2968,70.45,72,100,4.32,ZM,1669255480
460,faya,18.3851,42.4509,48.72,71,0,2.51,SA,1669255481
461,pangnirtung,66.1451,-65.7125,-1.71,65,10,6.13,CA,1669255481
462,sobolevo,54.4299,31.8996,20.88,98,94,2.37,RU,1669255541
463,port hardy,50.6996,-127.4199,47.39,83,100,28.5,CA,1669255542
464,natal,-5.795,-35.2094,79.45,78,20,11.5,BR,1669255542
465,vanavara,60.34,102.2797,-5.98,97,100,6.55,RU,1669255280
466,olavarria,-36.8927,-60.3225,61.99,57,0,8.39,AR,1669255542
467,payo,-3.7508,103.6372,82.18,70,99,1.05,ID,1669255542
468,bucak,37.4592,30.595,48.72,94,100,2.48,TR,1669255543
469,rocha,-34.4833,-54.3333,60.96,56,2,8.52,UY,1669255543
470,kiama,-34.6833,150.8667,76.37,60,0,3.0,AU,1669255543
471,bonavista,48.6499,-53.1147,29.88,86,99,23.13,CA,1669255544
472,bitung,1.4451,125.1824,88.65,68,69,6.15,ID,1669255544
473,paita,-5.0892,-81.1144,64.72,87,4,8.63,PE,1669255544
474,kagadi,0.9606,30.7967,60.35,98,82,2.06,UG,1669255545
475,miles city,46.4083,-105.8406,34.77,93,100,13.8,US,1669255545
476,riyadh,24.6877,46.7219,57.34,31,100,4.99,SA,1669255512
477,muroto,33.2833,134.15,63.9,59,100,4.97,JP,1669255545
478,lakes entrance,-37.8811,147.981,71.17,61,15,12.06,AU,1669255545
479,price,39.5994,-110.8107,30.72,64,0,10.8,US,1669255355
480,san juan del sur,11.2529,-85.8705,78.49,82,96,13.58,NI,1669255546
481,kristiansund,63.1115,7.732,41.65,42,10,8.05,NO,1669255546
482,oistins,13.0667,-59.5333,79.02,81,100,19.64,BB,1669255372
483,jijiga,9.35,42.8,57.36,62,2,1.21,ET,1669255547
484,palma di montechiaro,37.1926,13.765,57.31,91,6,10.36,IT,1669255547
485,itoman,26.1247,127.6694,73.42,86,75,12.66,JP,1669255547
486,te anau,-45.4167,167.7167,54.12,60,72,6.71,NZ,1669255547
487,parnamirim,-5.9156,-35.2628,79.14,80,12,5.93,BR,1669255548
488,qandala,11.472,49.8728,74.95,78,0,2.33,SO,1669255548
489,dudinka,69.4058,86.1778,-40.79,100,50,4.09,RU,1669255548
490,shelburne,44.0787,-80.2041,32.76,79,7,4.47,CA,1669255549
491,kholodnyy,62.7167,147.95,-8.43,94,100,3.11,RU,1669255549
492,port keats,-14.25,129.55,85.1,57,100,0.65,AU,1669255549
493,thunder bay,48.4001,-89.3168,27.81,96,90,3.09,CA,1669255543
494,staraya russa,57.9944,31.3608,24.57,95,89,4.68,RU,1669255550
495,sitka,57.0531,-135.33,48.09,81,100,18.41,US,1669255550
496,usevya,-7.1,31.2333,66.79,92,99,1.7,TZ,1669255550
497,san andres,12.5847,-81.7006,82.08,78,86,12.53,CO,1669255318
498,salinopolis,-0.6136,-47.3561,80.31,81,12,11.79,BR,1669255551
499,carbonear,47.7332,-53.2148,34.61,81,13,20.54,CA,1669255551
500,damietta,31.4165,31.8133,65.43,68,38,10.51,EG,1669255551
501,shirokiy,49.758,129.523,5.32,87,12,3.29,RU,1669255552
502,bintulu,3.1667,113.0333,73.63,94,100,7.47,MY,1669255552
503,vagur,61.4732,-6.8119,47.14,88,100,19.08,FO,1669255552
504,udachnyy,66.4167,112.4,-20.56,74,100,3.6,RU,1669255478
505,albina,5.5,-54.05,73.44,98,98,2.26,SR,1669255613
506,kieta,-6.2167,155.6333,83.03,72,100,3.67,PG,1669255613
507,zhuhai,22.2769,113.5678,73.18,94,40,17.27,CN,1669255613
508,miri,4.4148,114.0089,77.86,84,100,10.65,MY,1669255614
509,karaman,37.0833,33.25,45.52,81,100,13.91,TR,1669255614
510,bereda,43.2686,-7.5406,50.58,93,57,5.64,ES,1669255614
511,fengrun,39.8333,118.1167,48.31,73,95,4.76,CN,1669255615
512,kango,0.1943,10.0951,73.85,97,73,1.28,GA,1669255615
513,ushtobe,45.2514,77.9838,34.47,94,100,11.83,KZ,1669255615
514,niltepec,16.5667,-94.6167,75.42,81,87,7.76,MX,1669255616
515,tibati,6.4667,12.6333,64.96,30,11,2.44,CM,1669255616
516,nantucket,41.2835,-70.0995,46.15,65,0,9.22,US,1669255424
517,nishihara,26.1842,127.7558,72.68,89,75,12.66,JP,1669255617
518,mchinji,-13.7984,32.8802,63.21,89,68,1.79,MW,1669255617
519,magaria,12.9983,8.9099,65.66,19,0,9.71,NE,1669255617
520,cotui,19.0527,-70.1494,75.7,96,2,0.72,DO,1669255617
521,muhos,64.808,25.9931,24.58,95,41,5.5,FI,1669255618
522,pedra azul,-16.0053,-41.2972,65.35,98,100,3.04,BR,1669255618
523,bambamarca,-6.6833,-78.5333,51.1,84,25,2.66,PE,1669255618
524,mozarlandia,-14.7447,-50.5706,72.81,86,83,2.95,BR,1669255619
525,odweyne,9.4092,45.064,63.66,55,0,2.89,SO,1669255619
526,kosmynino,57.5818,40.7643,20.68,92,100,9.57,RU,1669255619
527,nalut,30.3333,10.85,55.45,48,0,8.41,LY,1669255619
528,scottsboro,34.6723,-86.0341,56.12,62,100,0.0,US,1669255543
529,porto nacional,-10.7081,-48.4172,78.8,90,58,1.66,BR,1669255620
530,lata,40.1629,-8.3327,57.07,91,100,4.34,PT,1669255620
531,dabakala,8.3667,-4.4333,75.85,64,100,2.86,CI,1669255620
532,tocopilla,-22.092,-70.1979,68.11,57,69,2.64,CL,1669255621
533,craigieburn,-37.6,144.95,64.98,73,75,5.75,AU,1669255621
534,podosinovets,60.2776,47.0659,14.45,88,92,8.72,RU,1669255621
535,luganville,-15.5333,167.1667,85.91,68,98,6.76,VU,1669255621
536,hovd,48.0056,91.6419,12.38,65,1,2.62,MN,1669255622
537,pontes e lacerda,-15.2261,-59.3353,73.31,80,32,2.73,BR,1669255622
538,mossendjo,-2.9506,12.7261,68.13,99,100,1.23,CG,1669255622
539,rudnogorsk,57.2639,103.7519,-0.26,82,100,9.46,RU,1669255623
540,pachino,36.7186,15.0907,62.82,84,5,14.94,IT,1669255623
541,kerrville,30.0474,-99.1403,56.55,98,100,5.75,US,1669255557
542,fredericksburg,38.3032,-77.4605,47.55,53,0,3.44,US,1669255624
543,bogovarovo,58.9785,47.0246,18.57,90,100,9.55,RU,1669255624
544,sylacauga,33.1732,-86.2516,56.64,66,100,0.0,US,1669255624
545,mayo,38.8876,-76.5119,49.71,73,0,0.0,US,1669255625
546,samarai,-10.6167,150.6667,86.07,67,0,13.6,PG,1669255625
547,kokkola,63.8385,23.1307,22.93,92,100,3.44,FI,1669255625
548,dalvik,65.9702,-18.5286,36.7,98,100,2.57,IS,1669255626
549,bambanglipuro,-7.95,110.2833,78.55,84,100,2.53,ID,1669255626
550,inta,66.0317,60.1659,0.09,97,88,8.5,RU,1669255626
551,slave lake,55.2834,-114.769,34.59,76,100,5.03,CA,1669255627
552,ambilobe,-13.2,49.05,72.0,83,2,3.38,MG,1669255627
553,sinnamary,5.3833,-52.95,78.31,86,96,8.12,GF,1669255687
554,shingu,33.7333,135.9833,62.06,52,100,7.65,JP,1669255688
555,huaicheng,23.9051,112.1931,64.63,98,100,2.66,CN,1669255688
556,achacachi,-16.05,-68.6833,42.84,78,89,1.3,BO,1669255688
557,tommot,58.9564,126.2925,-8.01,99,89,2.51,RU,1669255689
558,marawi,7.9986,124.2928,80.67,65,66,3.31,PH,1669255689
559,broome,42.2506,-75.833,36.54,75,37,1.99,US,1669255690
560,thinadhoo,0.5333,72.9333,81.77,73,100,13.58,MV,1669255690
561,gwadar,25.1216,62.3254,74.26,27,69,4.12,PK,1669255690
562,saint-francois,46.4154,3.9054,44.04,81,100,5.75,FR,1669255691
